[{"id": "1", "name": "COWL_1", "lat": 51.71105, "lon": -1.18901}, {"id": "2", "name": "ECLA_1", "lat": 51.92579, "lon": -0.90565}, {"id": "3", "name": "ENDE_1", "lat": 52.59726, "lon": -1.21548}, {"id": "4", "name": "GREN_1", "lat": 52.24269, "lon": -0.72736}, {"id": "5", "name": "RATS_1", "lat": 52.86342, "lon": -1.25444}, {"id": "6", "name": "STAY_1", "lat": 53.07717, "lon": -0.86738}, {"id": "7", "name": "SBAR", "lat": 52.95976, "lon": -1.05062}, {"id": "8", "name": "WBUR_1", "lat": 53.35891, "lon": -0.80781}, {"id": "9", "name": "BRWA1", "lat": 51.1168, "lon": -2.9677}, {"id": "10", "name": "MITY_1", "lat": 51.60728, "lon": -2.00116}, {"id": "11", "name": "TAUN1", "lat": 51.01643, "lon": -3.15387}, {"id": "12", "name": "CAMB_01", "lat": 53.729427, "lon": -1.000941}, {"id": "13", "name": "DRAX_1", "lat": 53.73598, "lon": -0.9908}, {"id": "14", "name": "GRIW_1", "lat": 53.56499, "lon": -0.15065}, {"id": "15", "name": "KEAD_1", "lat": 53.5978, "lon": -0.75457}, {"id": "16", "name": "OSBA_1", "lat": 53.95657, "lon": -1.02091}, {"id": "17", "name": "BARKC1", "lat": 51.52017, "lon": 0.113296}, {"id": "18", "name": "BARKW3", "lat": 51.52017, "lon": 0.113296}, {"id": "19", "name": "BEDDT1", "lat": 51.433113, "lon": -0.053455}, {"id": "20", "name": "BEDD_1", "lat": 51.37408, "lon": -0.12618}, {"id": "21", "name": "BRIM_1", "lat": 51.66398, "lon": -0.0217}, {"id": "22", "name": "CITR_1", "lat": 51.52967, "lon": -0.09412}, {"id": "23", "name": "EALI_6", "lat": 51.50134, "lon": -0.29454}, {"id": "24", "name": "HACK_1", "lat": 51.55898, "lon": -0.04172}, {"id": "25", "name": "HACK_6", "lat": 51.55898, "lon": -0.04172}, {"id": "26", "name": "HURS_1", "lat": 51.43215, "lon": 0.15625}, {"id": "27", "name": "NFLE", "lat": 51.427952, "lon": 0.329733}, {"id": "28", "name": "REBR_3", "lat": 51.58803, "lon": 0.04463}, {"id": "29", "name": "SJOW_1", "lat": 51.527, "lon": -0.16795}, {"id": "30", "name": "TOTT_1", "lat": 51.60402, "lon": -0.04604}, {"id": "31", "name": "WHAM_1", "lat": 51.51908, "lon": 0.00238}, {"id": "32", "name": "WISD_1", "lat": 51.53373, "lon": -0.25632}, {"id": "33", "name": "WIMBS1", "lat": 51.43048, "lon": -0.18643}, {"id": "34", "name": "WIMBN1", "lat": 51.43048, "lon": -0.18643}, {"id": "35", "name": "BIRK_1", "lat": 53.36549, "lon": -3.06139}, {"id": "36", "name": "FIDF_1", "lat": 53.37103, "lon": -2.68771}, {"id": "37", "name": "KIBY_1", "lat": 53.46896, "lon": -2.84636}, {"id": "38", "name": "KIBY_G", "lat": 53.46896, "lon": -2.84636}, {"id": "39", "name": "LISD_1", "lat": 53.41838, "lon": -2.9228}, {"id": "40", "name": "PENW_1", "lat": 53.74634, "lon": -2.75658}, {"id": "41", "name": "PENE_1", "lat": 53.74634, "lon": -2.75658}, {"id": "42", "name": "RAIN_1", "lat": 53.42095, "lon": -2.73746}, {"id": "43", "name": "WASF_1", "lat": 53.56236, "lon": -2.81818}, {"id": "44", "name": "CHIC_1", "lat": 50.62406, "lon": -2.48521}, {"id": "45", "name": "FOUR_1", "lat": 55.01175, "lon": -2.16266}, {"id": "46", "name": "FROD_1", "lat": 53.30934, "lon": -2.71542}, {"id": "47", "name": "IMPK_1", "lat": 51.54744, "lon": -3.02962}, {"id": "48", "name": "MAGA_6", "lat": 51.56246, "lon": -3.75272}, {"id": "49", "name": "PYLE_1", "lat": 51.53544, "lon": -3.68659}, {"id": "50", "name": "SALH_1", "lat": 54.60537, "lon": -1.23616}, {"id": "51", "name": "TEMP_3", "lat": 53.41178, "lon": -1.38428}, {"id": "52", "name": "TRAW_1", "lat": 52.9271, "lon": -3.94628}, {"id": "53", "name": "TYNE_2", "lat": 55.0236, "lon": -1.49902}, {"id": "54", "name": "BICF_1", "lat": 52.93046, "lon": -0.21951}, {"id": "55", "name": "BRAI_1", "lat": 51.86442, "lon": 0.57806}, {"id": "56", "name": "BURM_1", "lat": 52.28034, "lon": 0.3151}, {"id": "57", "name": "EASO_1", "lat": 52.21422, "lon": -0.30001}, {"id": "58", "name": "IVER_1", "lat": 51.54361, "lon": -0.49728}, {"id": "59", "name": "IVER_6", "lat": 51.54361, "lon": -0.49728}, {"id": "60", "name": "KINO_1", "lat": 51.41803, "lon": 0.60007}, {"id": "61", "name": "LALE1SG003", "lat": 51.42324, "lon": -0.46904}, {"id": "62", "name": "LODR_6", "lat": 51.528355, "lon": -0.170383}, {"id": "63", "name": "MILH_1", "lat": 51.61738, "lon": -0.20697}, {"id": "64", "name": "NHYD_6", "lat": 51.49941, "lon": -0.40981}, {"id": "65", "name": "PELH_1", "lat": 51.93467, "lon": 0.12036}, {"id": "66", "name": "RAYL_1", "lat": 51.59355, "lon": 0.56816}, {"id": "67", "name": "RYEH_1", "lat": 51.75854, "lon": 0.01019}, {"id": "68", "name": "SUND_1", "lat": 51.93586, "lon": -0.50142}, {"id": "69", "name": "WARL_1", "lat": 51.55232, "lon": 0.30304}, {"id": "70", "name": "WATFS_1", "lat": 51.64253, "lon": -0.40252}, {"id": "71", "name": "WTHU31", "lat": 51.47041, "lon": 0.28966}, {"id": "72", "name": "WWEY_1", "lat": 51.35286, "lon": -0.47801}, {"id": "73", "name": "WYMOM_1", "lat": 51.92672, "lon": -0.24865}, {"id": "74", "name": "BRED_1", "lat": 53.41428, "lon": -2.12746}, {"id": "75", "name": "KEAR_1", "lat": 53.53738, "lon": -2.35604}, {"id": "76", "name": "KEAR_3", "lat": 53.53738, "lon": -2.35604}, {"id": "77", "name": "MACC_3", "lat": 53.26843, "lon": -2.12}, {"id": "78", "name": "SMAN_1", "lat": 53.42002, "lon": -2.27484}, {"id": "79", "name": "STAL_1", "lat": 53.4934, "lon": -2.03978}, {"id": "80", "name": "WHGA_1", "lat": 53.52853, "lon": -2.16577}, {"id": "81", "name": "BLYTB1", "lat": 55.14106, "lon": -1.53101}, {"id": "82", "name": "HARM_6", "lat": 54.70038, "lon": -1.29041}, {"id": "83", "name": "HAWP_6", "lat": 54.80525, "lon": -1.40147}, {"id": "84", "name": "LACK_6", "lat": 54.56683, "lon": -1.1301}, {"id": "85", "name": "NORT_1", "lat": 54.5927, "lon": -1.36566}, {"id": "86", "name": "OFFE_3", "lat": 54.88069, "lon": -1.45638}, {"id": "87", "name": "SSHI_3", "lat": 54.9733, "lon": -1.44787}, {"id": "88", "name": "SPEN_1", "lat": 54.70514, "lon": -1.55123}, {"id": "89", "name": "TYNE_1", "lat": 55.0236, "lon": -1.49902}, {"id": "90", "name": "WBOL_6", "lat": 54.94002, "lon": -1.46879}, {"id": "91", "name": "HUTT_1", "lat": 54.29736, "lon": -2.66949}, {"id": "92", "name": "PADIB1", "lat": 53.79514, "lon": -2.31962}, {"id": "93", "name": "ROCH_1", "lat": 53.6217, "lon": -2.21535}, {"id": "94", "name": "CELL_1", "lat": 53.04058, "lon": -2.08115}, {"id": "95", "name": "LEGA_1", "lat": 53.02823, "lon": -3.05246}, {"id": "96", "name": "PENT_1", "lat": 53.1873, "lon": -4.15676}, {"id": "97", "name": "BOLN_1", "lat": 50.97466, "lon": -0.2335}, {"id": "98", "name": "BOTW_1", "lat": 50.88393, "lon": -1.23059}, {"id": "99", "name": "FAWL_1", "lat": 50.82116, "lon": -1.32711}, {"id": "100", "name": "FLEE_1", "lat": 51.25075, "lon": -0.88184}, {"id": "101", "name": "LOVE_1", "lat": 50.91681, "lon": -1.03854}, {"id": "102", "name": "NINF_1", "lat": 50.88089, "lon": 0.44941}, {"id": "103", "name": "NURS_1", "lat": 50.94195, "lon": -1.48521}, {"id": "104", "name": "ABTH_1", "lat": 51.38785, "lon": -3.40198}, {"id": "105", "name": "CARE_1", "lat": 51.49432, "lon": -3.14415}, {"id": "106", "name": "IROA1", "lat": 51.56933, "lon": -2.47937}, {"id": "107", "name": "PEMB_1", "lat": 51.68165, "lon": -4.98939}, {"id": "108", "name": "RASS_1", "lat": 51.80789, "lon": -3.2254}, {"id": "109", "name": "SEAB1", "lat": 51.53663, "lon": -2.66869}, {"id": "110", "name": "SWAN_1", "lat": 51.68897, "lon": -3.95558}, {"id": "111", "name": "UPPB_1", "lat": 51.57359, "lon": -3.29916}, {"id": "112", "name": "UPPB_3", "lat": 51.57359, "lon": -3.29916}, {"id": "113", "name": "USKM_1", "lat": 51.54663, "lon": -2.97729}, {"id": "114", "name": "ALST_3", "lat": 51.54663, "lon": -2.97729}, {"id": "115", "name": "WALH_1", "lat": 51.87874, "lon": -2.25251}, {"id": "116", "name": "ABHA1", "lat": 50.47108, "lon": -3.72977}, {"id": "117", "name": "ALVE1", "lat": 51.00538, "lon": -4.13534}, {"id": "118", "name": "AXMI1", "lat": 50.78594, "lon": -2.92337}, {"id": "119", "name": "EXET1", "lat": 50.76702, "lon": -3.40398}, {"id": "120", "name": "INDQ1", "lat": 50.39439, "lon": -4.89788}, {"id": "121", "name": "LAND1", "lat": 50.44447, "lon": -4.24153}, {"id": "122", "name": "MANN_1", "lat": 50.84632, "lon": -1.89465}, {"id": "123", "name": "CHTE_1", "lat": 53.22425, "lon": -1.38736}, {"id": "124", "name": "JORD_3", "lat": 53.32921, "lon": -1.4565}, {"id": "125", "name": "NEEP_3", "lat": 53.40642, "lon": -1.48696}, {"id": "126", "name": "NORL_3", "lat": 53.34823, "lon": -1.46998}, {"id": "127", "name": "SHEC_3", "lat": 53.37445, "lon": -1.47708}, {"id": "128", "name": "THOM_6", "lat": 53.57845, "lon": -1.08549}, {"id": "129", "name": "THUR_6", "lat": 53.40464, "lon": -1.26697}, {"id": "130", "name": "WMEL_1", "lat": 53.50118, "lon": -1.37543}, {"id": "131", "name": "WIBA_3", "lat": 53.41559, "lon": -1.41236}, {"id": "132", "name": "BESW_1", "lat": 52.38546, "lon": -1.61401}, {"id": "133", "name": "BISW_1", "lat": 52.31172, "lon": -2.24028}, {"id": "134", "name": "BUSH_1", "lat": 52.63662, "lon": -2.11432}, {"id": "135", "name": "BUST_1", "lat": 52.5529, "lon": -1.95942}, {"id": "136", "name": "COVE_1", "lat": 52.45608, "lon": -1.46225}, {"id": "137", "name": "DRAK_1", "lat": 52.77345, "lon": -1.65155}, {"id": "138", "name": "FECK_6", "lat": 52.2519, "lon": -1.97238}, {"id": "139", "name": "IRONB1", "lat": 52.63163, "lon": -2.5129}, {"id": "140", "name": "KITW_1", "lat": 52.4304, "lon": -2.01243}, {"id": "141", "name": "HAMHC1", "lat": 52.528656, "lon": -1.708746}, {"id": "142", "name": "OCKH_1", "lat": 52.54155, "lon": -2.02821}, {"id": "143", "name": "OLDB_1", "lat": 52.49906, "lon": -2.0216}, {"id": "144", "name": "PENN_1", "lat": 52.55656, "lon": -2.20838}, {"id": "145", "name": "RUGEB1", "lat": 52.75633, "lon": -1.91351}, {"id": "146", "name": "SHRW_1", "lat": 52.70869, "lon": -2.69141}, {"id": "147", "name": "WIEN_1", "lat": 52.57746, "lon": -2.04808}, {"id": "148", "name": "WILL_1", "lat": 52.85506, "lon": -1.54523}, {"id": "149", "name": "BRAW_1", "lat": 53.81028, "lon": -1.86383}, {"id": "150", "name": "ELLA_1", "lat": 53.69365, "lon": -1.82222}, {"id": "151", "name": "FERRB1", "lat": 53.71912, "lon": -1.2702}, {"id": "152", "name": "FERRA2", "lat": 53.71912, "lon": -1.2702}, {"id": "153", "name": "KIRKB1", "lat": 53.80602, "lon": -1.59652}, {"id": "154", "name": "POPP_3", "lat": 53.97485, "lon": -1.13005}, {"id": "155", "name": "SKLGB1", "lat": 53.77667, "lon": -1.49531}, {"id": "165", "name": "AYRR", "lat": 55.45746, "lon": -4.58795}, {"id": "167", "name": "BAGA", "lat": 55.89992, "lon": -3.67308}, {"id": "169", "name": "BERW", "lat": 55.77749, "lon": -2.07909}, {"id": "173", "name": "BRAP", "lat": 55.8807, "lon": -4.38052}, {"id": "177", "name": "BROX", "lat": 55.91953, "lon": -3.45348}, {"id": "179", "name": "CATY", "lat": 55.85784, "lon": -4.19723}, {"id": "180", "name": "CAAD_P", "lat": 55.59091, "lon": -5.50244}, {"id": "181", "name": "WISH", "lat": 55.76492, "lon": -3.92982}, {"id": "184", "name": "CHAP", "lat": 55.01653, "lon": -3.22937}, {"id": "186", "name": "CHAS", "lat": 55.85519, "lon": -4.23988}, {"id": "188", "name": "CLYM", "lat": 55.82502, "lon": -4.15302}, {"id": "189", "name": "COCK", "lat": 55.96733, "lon": -2.9674}, {"id": "190", "name": "COYL", "lat": 55.44719, "lon": -4.43078}, {"id": "192", "name": "CUMB", "lat": 55.94687, "lon": -3.96418}, {"id": "194", "name": "CURR", "lat": 55.90112, "lon": -3.30901}, {"id": "195", "name": "DEVM", "lat": 55.91631, "lon": -4.71011}, {"id": "197", "name": "DEWP", "lat": 55.94704, "lon": -3.2101}, {"id": "199", "name": "DRUM", "lat": 55.91525, "lon": -4.34927}, {"id": "200", "name": "DRCR", "lat": 55.90659, "lon": -3.58727}, {"id": "202", "name": "DUNB", "lat": 55.97735, "lon": -2.5738}, {"id": "205", "name": "DUNO_P", "lat": 55.97589, "lon": -4.94718}, {"id": "208", "name": "EKIL", "lat": 55.78534, "lon": -4.1933}, {"id": "209", "name": "EKIS", "lat": 55.74056, "lon": -4.16324}, {"id": "210", "name": "EERH", "lat": 55.87962, "lon": -4.07549}, {"id": "211", "name": "ECCL", "lat": 55.66835, "lon": -2.32746}, {"id": "212", "name": "ELDE", "lat": 55.84061, "lon": -4.4649}, {"id": "214", "name": "ERSK", "lat": 55.90378, "lon": -4.46038}, {"id": "220", "name": "GALA", "lat": 55.61037, "lon": -2.77145}, {"id": "221", "name": "GIFF", "lat": 55.79869, "lon": -4.29982}, {"id": "224", "name": "GLLU", "lat": 54.88189, "lon": -4.80802}, {"id": "226", "name": "GORG", "lat": 55.93637, "lon": -3.23676}, {"id": "227", "name": "GOVA", "lat": 55.8551, "lon": -4.31621}, {"id": "229", "name": "HAGR", "lat": 55.82997, "lon": -4.29678}, {"id": "230", "name": "HAWI", "lat": 55.43296, "lon": -2.80204}, {"id": "232", "name": "HUER", "lat": 55.72213, "lon": -4.88846}, {"id": "235", "name": "JOHN", "lat": 55.845, "lon": -4.50591}, {"id": "236", "name": "KAIM", "lat": 55.89156, "lon": -3.16337}, {"id": "239", "name": "KIER", "lat": 55.9035, "lon": -4.30908}, {"id": "240", "name": "KILS", "lat": 55.575958, "lon": -4.436878}, {"id": "241", "name": "KILT", "lat": 55.59783, "lon": -4.49547}, {"id": "242", "name": "KILW", "lat": 55.66523, "lon": -4.68013}, {"id": "247", "name": "LINM", "lat": 55.67157, "lon": -3.82656}, {"id": "248", "name": "LING", "lat": 55.88266, "lon": -3.49274}, {"id": "251", "name": "MAYB", "lat": 55.33702251, "lon": -4.677001696}, {"id": "254", "name": "NEAR", "lat": 55.8248, "lon": -3.94613}, {"id": "255", "name": "NETS", "lat": 54.9484212, "lon": -4.491001462}, {"id": "256", "name": "PAIS", "lat": 55.84013, "lon": -4.41366}, {"id": "257", "name": "PART", "lat": 55.87028, "lon": -4.31639}, {"id": "262", "name": "PORD", "lat": 55.87342, "lon": -4.2542}, {"id": "263", "name": "POOB", "lat": 55.95296, "lon": -3.12399}, {"id": "269", "name": "SHRU", "lat": 55.96433, "lon": -3.18531}, {"id": "270", "name": "SIGH", "lat": 55.92867, "lon": -3.3046}, {"id": "272", "name": "SPAV", "lat": 55.93664, "lon": -4.81425}, {"id": "275", "name": "SANX", "lat": 55.84403, "lon": -4.26053}, {"id": "276", "name": "STHA", "lat": 55.75309, "lon": -4.08078}, {"id": "277", "name": "STLE", "lat": 55.96095, "lon": -4.56202}, {"id": "281", "name": "TELR", "lat": 55.96161, "lon": -3.24337}, {"id": "282", "name": "TONG", "lat": 54.85974, "lon": -4.03475}, {"id": "284", "name": "WGEO", "lat": 55.863, "lon": -4.2651}, {"id": "286", "name": "WHHO", "lat": 55.93129, "lon": -3.20176}, {"id": "289", "name": "BRLE_1", "lat": 51.33557, "lon": -1.07584}, {"id": "290", "name": "NEWX_6", "lat": 51.48412, "lon": -0.05792}, {"id": "291", "name": "CAPEA1", "lat": 53.2685, "lon": -2.94786}, {"id": "292", "name": "BLYTH132", "lat": 55.14106, "lon": -1.53101}, {"id": "293", "name": "PITS_3", "lat": 53.40046, "lon": -1.44215}, {"id": "294", "name": "SELL_1", "lat": 51.10592, "lon": 0.97783}, {"id": "295", "name": "CHSI_1", "lat": 51.34358, "lon": -0.32112}, {"id": "296", "name": "ELST_1", "lat": 51.661, "lon": -0.34377}, {"id": "297", "name": "KEMS_1", "lat": 51.36774, "lon": 0.74318}, {"id": "298", "name": "TILBB_1", "lat": 51.45976, "lon": 0.3954}, {"id": "299", "name": "CARR_1", "lat": 53.43601, "lon": -2.40573}, {"id": "300", "name": "CONQA1", "lat": 53.22755, "lon": -3.07263}, {"id": "301", "name": "NECE_1", "lat": 52.50647, "lon": -1.85091}, {"id": "302", "name": "COAT", "lat": 55.8516, "lon": -4.01407}, {"id": "303", "name": "CROO", "lat": 55.82121, "lon": -4.36533}, {"id": "304", "name": "DUMF", "lat": 55.06763, "lon": -3.5913}, {"id": "306", "name": "KILB", "lat": 55.9189, "lon": -4.41049}, {"id": "307", "name": "SACO", "lat": 55.6469, "lon": -4.79668}, {"id": "308", "name": "CREB_1", "lat": 53.8009731, "lon": -0.4144914}, {"id": "309", "name": "SALT_1", "lat": 53.74276734, "lon": -0.238077699}, {"id": "310", "name": "LITT_C", "lat": 51.460622, "lon": 0.244391}, {"id": "311", "name": "LITT_J", "lat": 51.460621, "lon": 0.244394}, {"id": "312", "name": "STAH_1", "lat": 53.87966201, "lon": -2.989774208}, {"id": "313", "name": "WISD_6", "lat": 51.53495051, "lon": -0.257050264}, {"id": "314", "name": "ACTL_C", "lat": 51.53495051, "lon": -0.257050264}, {"id": "315", "name": "ACTL_2", "lat": 51.53495051, "lon": -0.257050264}, {"id": "316", "name": "CBNK_H", "lat": 51.53495051, "lon": -0.257050264}, {"id": "317", "name": "GREE_H", "lat": 51.53495051, "lon": -0.257050264}, {"id": "318", "name": "PERI_H", "lat": 51.53495051, "lon": -0.257050264}, {"id": "319", "name": "AMEM_1", "lat": 51.66424942, "lon": -0.655116209}, {"id": "320", "name": "LOUD_H", "lat": 51.66424942, "lon": -0.655116209}, {"id": "321", "name": "BRFO_1", "lat": 52.07018187, "lon": 1.062822573}, {"id": "322", "name": "CANTN1", "lat": 51.29233519, "lon": 1.094176117}, {"id": "323", "name": "RICH1", "lat": 51.30873, "lon": 1.3459}, {"id": "324", "name": "NORM_1", "lat": 52.57327, "lon": 1.27176}, {"id": "325", "name": "WALP_1", "lat": 52.72774811, "lon": 0.1989261763}, {"id": "326", "name": "WALP_B", "lat": 52.72774811, "lon": 0.1989261763}, {"id": "327", "name": "STEN_1", "lat": 54.97805729, "lon": -1.724488264}, {"id": "328", "name": "STES_1", "lat": 54.97435217, "lon": -1.732510197}, {"id": "329", "name": "HARK_1", "lat": 54.94152557, "lon": -2.964416544}, {"id": "330", "name": "HEYS_1", "lat": 54.03269168, "lon": -2.888958664}, {"id": "331", "name": "HEYS1", "lat": 54.03269168, "lon": -2.888958664}, {"id": "334", "name": "MELK_1", "lat": 51.39181465, "lon": -2.150383477}, {"id": "335", "name": "KNAR", "lat": 54.03121063, "lon": -1.487843766}, {"id": "336", "name": "WYLF_1", "lat": 53.413644, "lon": -4.482279}, {"id": "337", "name": "DALM3", "lat": 55.83856729, "lon": -4.208346491}, {"id": "338", "name": "FINN", "lat": 55.863398, "lon": -4.286086}]